City_ID,City,Country,Lat,Lng,Max Temp,Humidity,Cloudiness,Wind Speed,Current Description
0,Saint George,US,37.1041,-113.5841,43.79,59,1,5.01,clear sky
1,Chuy,UY,-33.6971,-53.4616,64.22,85,17,7.05,moderate rain
2,Alta Floresta,BR,-9.8756,-56.0861,73.26,97,100,2.26,moderate rain
3,Nanortalik,GL,60.1432,-45.2371,26.56,72,100,14.05,overcast clouds
4,Lichinga,MZ,-13.3128,35.2406,64.49,82,20,16.11,few clouds
5,Mount Gambier,AU,-37.8333,140.7667,66.11,55,40,13.8,light rain
6,Cape Town,ZA,-33.9258,18.4232,64.89,84,0,3.0,clear sky
7,Victoria,HK,22.2855,114.1577,71.04,68,0,1.99,clear sky
8,Sanok,PL,49.5557,22.2056,32.43,100,100,5.26,light snow
9,Ossora,RU,59.2353,163.0719,9.07,91,100,29.44,snow
10,Merrill,US,45.1805,-89.6835,35.37,71,1,3.44,clear sky
11,Puerto Ayora,EC,-0.7393,-90.3518,68.56,96,91,1.99,overcast clouds
12,Sao Filipe,CV,14.8961,-24.4956,74.82,72,82,9.57,broken clouds
13,Alghero,IT,40.5589,8.3181,32.09,100,0,2.3,clear sky
14,Tiksi,RU,71.6872,128.8694,-19.16,100,100,1.32,overcast clouds
15,Jamestown,US,42.097,-79.2353,38.79,56,1,8.99,clear sky
16,Qaanaaq,GL,77.484,-69.3632,-3.66,73,2,5.14,clear sky
17,De Aar,ZA,-30.6497,24.0123,66.7,63,2,4.65,clear sky
18,Busselton,AU,-33.65,115.3333,69.55,40,100,9.57,overcast clouds
19,Kapaa,US,22.0752,-159.319,80.58,75,40,4.0,light rain
20,Fairbanks,US,64.8378,-147.7164,-11.78,67,40,0.0,light snow
21,Nanakuli,US,21.3906,-158.1547,77.99,68,75,5.75,broken clouds
22,Vallenar,CL,-28.5708,-70.7581,61.66,59,0,2.01,clear sky
23,Dikson,RU,73.5069,80.5464,-17.27,96,81,17.94,broken clouds
24,Saldanha,ZA,-33.0117,17.9442,60.85,93,3,13.98,clear sky
25,Izumo,JP,35.3667,132.7667,49.95,61,75,14.97,broken clouds
26,Mmabatho,ZA,-25.85,25.6333,66.16,88,0,9.22,light rain
27,Iqaluit,CA,63.7506,-68.5145,4.73,65,40,5.01,scattered clouds
28,Rikitea,PF,-23.1203,-134.9692,77.27,79,86,8.95,light rain
29,Mataura,NZ,-46.1927,168.8643,62.47,37,16,7.49,few clouds
30,Bluff,NZ,-46.6,168.3333,62.8,74,57,15.23,broken clouds
31,Lavrentiya,RU,65.5833,-171.0,-15.3,91,66,4.36,broken clouds
32,Arraial Do Cabo,BR,-22.9661,-42.0278,75.09,95,100,10.18,overcast clouds
33,Akyab,MM,20.15,92.9,77.97,50,2,5.75,clear sky
34,Bethel,US,41.3712,-73.414,42.49,59,1,1.01,clear sky
35,Staraya Poltavka,RU,50.4772,46.4814,14.9,82,43,7.67,scattered clouds
36,Tasiilaq,GL,65.6145,-37.6368,33.96,91,100,4.52,overcast clouds
37,Adre,TD,13.4667,22.2,65.98,28,75,8.79,broken clouds
38,Albany,US,42.6001,-73.9662,40.08,54,0,1.99,clear sky
39,Ushuaia,AR,-54.8,-68.3,40.66,65,75,23.02,broken clouds
40,Hobart,AU,-42.8794,147.3294,80.02,44,0,1.99,clear sky
41,Amuntai,ID,-2.4177,115.2494,82.9,82,96,3.42,overcast clouds
42,Tubbergen,NL,52.4,6.7667,50.86,96,100,10.25,overcast clouds
43,Yellowknife,CA,62.456,-114.3525,7.32,85,90,5.75,light snow
44,Khatanga,RU,71.9667,102.5,-40.0,96,87,6.44,overcast clouds
45,Coffs Harbour,AU,-30.3,153.1333,80.87,61,26,14.97,scattered clouds
46,Cidreira,BR,-30.1811,-50.2056,71.08,94,1,10.71,clear sky
47,Vaini,TO,-21.2,-175.2,84.36,79,40,11.5,light rain
48,Praia Da Vitoria,PT,38.7333,-27.0667,55.65,76,20,16.62,few clouds
49,Torbay,CA,47.6666,-52.7314,38.57,79,90,31.07,overcast clouds
50,Hermanus,ZA,-34.4187,19.2345,62.91,88,64,5.23,broken clouds
51,Posse,BR,-14.0931,-46.3694,68.99,95,100,6.22,overcast clouds
52,Wahiawa,US,21.5028,-158.0236,74.77,74,75,5.75,broken clouds
53,Hithadhoo,MV,-0.6,73.0833,81.77,76,98,11.14,overcast clouds
54,Tura,IN,25.5198,90.2201,70.7,51,0,0.81,clear sky
55,Severo-Kurilsk,RU,50.6789,156.125,33.04,82,44,2.95,scattered clouds
56,Visby,SE,57.6409,18.296,32.22,93,75,5.75,broken clouds
57,Qasigiannguit,GL,68.8193,-51.1922,17.85,84,56,4.81,broken clouds
58,Zeya,RU,53.75,127.2667,1.69,60,100,2.01,overcast clouds
59,Saskylakh,RU,71.9167,114.0833,-44.57,100,75,3.33,broken clouds
60,Lebu,CL,-37.6167,-73.65,50.43,85,91,8.03,overcast clouds
61,Port Moresby,PG,-9.4431,147.1797,90.82,55,90,11.5,haze
62,Taltal,CL,-25.4,-70.4833,61.47,85,13,2.59,few clouds
63,Bredasdorp,ZA,-34.5322,20.0403,61.92,88,99,3.44,overcast clouds
64,Hilo,US,19.7297,-155.09,72.81,1,71,7.76,broken clouds
65,Antalaha,MG,-14.9003,50.2788,76.32,78,62,4.81,broken clouds
66,Poronaysk,RU,49.2167,143.1167,28.13,79,100,21.25,overcast clouds
67,Sainte-Rose,GP,16.3324,-61.6979,74.17,88,20,2.3,few clouds
68,Ilulissat,GL,69.2167,-51.1,17.62,67,33,3.44,scattered clouds
69,Pangnirtung,CA,66.1451,-65.7125,-4.79,71,82,6.38,broken clouds
70,Zhezkazgan,KZ,47.8043,67.7144,17.58,86,90,20.13,light snow
71,Saint-Pierre,RE,-21.3393,55.4781,80.29,65,0,19.57,clear sky
72,Punta Arenas,CL,-53.15,-70.9167,42.91,65,75,14.97,broken clouds
73,Saint-Philippe,RE,-21.3585,55.7679,80.22,76,37,10.58,scattered clouds
74,Ponta Do Sol,PT,32.6667,-17.1,63.01,79,37,2.77,scattered clouds
75,Ribeira Grande,PT,38.5167,-28.7,58.62,55,100,12.5,overcast clouds
76,Mount Isa,AU,-20.7333,139.5,103.77,8,0,4.61,clear sky
77,Loandjili,CG,-4.7561,11.8578,78.91,100,75,3.44,light rain
78,Fortuna,US,40.5982,-124.1573,49.66,89,90,1.99,overcast clouds
79,Kilindoni,TZ,-7.9139,39.6668,78.44,78,13,5.44,light rain
80,Cooma,AU,-36.2333,149.1333,73.17,46,0,11.5,clear sky
81,Chambery,FR,45.5667,5.9333,35.22,96,77,3.44,mist
82,Aklavik,CA,68.2191,-135.0107,-4.97,89,100,20.6,overcast clouds
83,Shahr-E Babak,IR,30.1165,55.1186,39.72,36,0,1.3,clear sky
84,Amurzet,RU,47.6967,131.0981,10.81,72,94,11.32,overcast clouds
85,Butaritari,KI,3.0707,172.7902,82.18,76,22,16.13,few clouds
86,Benton Harbor,US,42.1167,-86.4542,43.11,55,83,1.01,broken clouds
87,Hambantota,LK,6.1241,81.1185,79.14,100,75,9.22,broken clouds
88,Esperance,AU,-33.8667,121.9,69.64,44,84,9.44,broken clouds
89,New Norfolk,AU,-42.7826,147.0587,79.66,22,3,3.6,clear sky
90,Khandyga,RU,62.6667,135.6,-34.22,98,72,1.23,broken clouds
91,Tigil,RU,57.8,158.6667,19.24,89,100,11.12,overcast clouds
92,Lloret De Mar,ES,41.6999,2.8457,52.9,98,5,7.0,clear sky
93,Methoni,GR,36.8197,21.7049,51.22,69,67,21.45,broken clouds
94,Igarka,RU,67.4667,86.5833,-27.9,98,90,4.68,overcast clouds
95,Bara,NG,10.3744,10.7288,67.64,28,31,6.29,scattered clouds
96,Sibut,CF,5.718,19.0739,76.75,38,94,4.38,overcast clouds
97,Jalu,LY,29.0331,21.5482,51.6,83,0,6.53,clear sky
98,Praya,CV,14.9215,-23.5087,73.94,83,100,16.11,overcast clouds
99,Praia,CV,14.9215,-23.5087,73.94,83,100,16.11,overcast clouds
100,Jasper,US,37.2001,-94.3502,45.54,50,1,8.05,clear sky
101,Waitara,NZ,-38.925,174.25,73.72,91,100,4.03,moderate rain
102,Avarua,CK,-21.2078,-159.775,75.25,88,75,13.8,moderate rain
103,Tuktoyaktuk,CA,69.4541,-133.0374,-7.6,77,75,18.41,light snow
104,Atuona,PF,-9.8,-139.0333,79.07,79,51,17.85,light rain
105,Port Alfred,ZA,-33.5906,26.891,72.46,93,100,12.21,overcast clouds
106,Sioux Lookout,CA,50.1001,-91.917,32.38,86,90,6.91,overcast clouds
107,Bathsheba,BB,13.2167,-59.5167,79.41,89,40,18.41,scattered clouds
108,Chalchihuites,MX,23.4833,-103.8833,53.44,42,9,5.39,clear sky
109,Carnarvon,AU,-24.8667,113.6333,78.87,57,1,19.57,clear sky
110,Manokwari,ID,-0.8667,134.0833,84.69,72,90,4.16,overcast clouds
111,Castro,BR,-24.7911,-50.0119,63.79,81,97,6.04,overcast clouds
112,Zadar,HR,44.1197,15.2422,36.21,64,0,4.61,clear sky
113,Vardo,NO,70.3705,31.1107,32.2,79,79,19.95,broken clouds
114,Olean,US,42.0776,-78.4297,37.98,59,1,10.36,clear sky
115,Narsaq,GL,60.9167,-46.05,16.02,75,96,2.51,overcast clouds
116,Boundiali,CI,9.5217,-6.4869,70.99,31,4,1.66,clear sky
117,Dingzhou,CN,38.5131,114.9956,33.91,31,0,5.21,clear sky
118,Codrington,AU,-38.2667,141.9667,68.25,61,100,20.96,light rain
119,Vestmannaeyjar,IS,63.4427,-20.2734,43.84,72,100,15.17,overcast clouds
120,Trelew,AR,-43.249,-65.3051,57.27,64,97,1.72,overcast clouds
121,Touros,BR,-5.1989,-35.4608,81.5,76,48,13.56,scattered clouds
122,Laguna,US,38.421,-121.4238,52.92,92,90,5.01,mist
123,Marawi,PH,7.9986,124.2928,75.65,65,100,4.41,overcast clouds
124,Lakes Entrance,AU,-37.8811,147.981,84.58,64,0,12.06,clear sky
125,Yumen,CN,40.2833,97.2,26.4,27,7,27.34,clear sky
126,Kismayo,SO,-0.3582,42.5454,80.24,79,86,11.21,light rain
127,Byron Bay,AU,-28.65,153.6167,80.71,65,82,11.61,broken clouds
128,Tazovskiy,RU,67.4667,78.7,-28.95,95,16,5.28,few clouds
129,Norman Wells,CA,65.282,-126.8329,-2.16,71,75,13.8,light snow
130,Djambala,CG,-2.5447,14.7533,66.56,95,98,2.62,overcast clouds
131,Shingu,JP,33.7333,135.9833,54.59,46,6,8.46,clear sky
132,Saint Anthony,US,45.0205,-93.218,34.48,74,1,1.99,clear sky
133,Pevek,RU,69.7008,170.3133,-32.49,96,10,1.92,clear sky
134,Comodoro Rivadavia,AR,-45.8667,-67.5,55.26,82,100,9.22,light rain
135,Gisborne,NZ,-38.6533,178.0042,75.94,86,100,3.78,light rain
136,Aksu,CN,41.1231,80.2644,25.68,56,21,1.19,few clouds
137,Point Pleasant,US,40.0832,-74.0682,43.95,62,1,1.01,clear sky
138,Kaitangata,NZ,-46.2817,169.8464,63.93,68,44,7.4,scattered clouds
139,Havre-Saint-Pierre,CA,50.2334,-63.5986,30.79,54,75,31.07,broken clouds
140,Yarensk,RU,62.1675,49.0916,3.06,98,93,4.25,overcast clouds
141,Aksarka,RU,66.5606,67.7975,-14.71,100,88,3.47,overcast clouds
142,Leningradskiy,RU,69.3833,178.4167,-30.77,89,9,3.83,clear sky
143,Soe,ID,-9.8607,124.284,84.92,50,80,3.89,broken clouds
144,Clyde River,CA,70.4692,-68.5914,-18.06,99,91,4.74,overcast clouds
145,Kibre Mengist,ET,5.8833,38.9833,51.73,81,95,3.18,overcast clouds
146,Nishihara,JP,26.1842,127.7558,67.28,75,90,14.97,drizzle
147,Opuwo,NA,-18.0607,13.84,72.41,66,64,9.51,broken clouds
148,Georgetown,MY,5.4112,100.3354,86.9,71,20,5.01,few clouds
149,Asfi,MA,32.2994,-9.2372,61.95,57,15,2.91,few clouds
150,Souillac,MU,-20.5167,57.5167,80.37,78,75,6.91,broken clouds
151,Shitanjing,CN,39.2342,106.3439,28.53,21,0,1.7,clear sky
152,Acapulco,MX,16.8634,-99.8901,78.04,76,2,3.11,clear sky
153,Mago,RU,53.2514,140.1822,23.94,91,100,8.75,light snow
154,East London,ZA,-33.0153,27.9116,70.74,78,0,10.36,clear sky
155,Borazjan,IR,29.2666,51.2159,56.53,41,2,0.04,clear sky
156,Port Elizabeth,ZA,-33.918,25.5701,70.09,94,75,4.61,light rain
157,Grand Gaube,MU,-20.0064,57.6608,80.38,67,6,7.0,clear sky
158,Dunajska Streda,SK,47.9927,17.6121,36.1,85,32,11.36,light snow
159,Dingle,PH,10.9995,122.6711,82.15,82,89,12.73,overcast clouds
160,Gornopravdinsk,RU,60.05,69.9,-2.67,100,88,3.58,overcast clouds
161,Brae,GB,60.3964,-1.353,51.71,76,100,45.37,overcast clouds
162,Montepuez,MZ,-13.1256,38.9997,71.06,89,83,5.95,broken clouds
163,Richards Bay,ZA,-28.783,32.0377,76.77,74,100,6.91,overcast clouds
164,Coihaique,CL,-45.5752,-72.0662,49.95,76,75,5.75,broken clouds
165,Sisimiut,GL,66.9395,-53.6735,15.26,84,16,10.31,few clouds
166,Hun,LY,29.1268,15.9477,45.77,61,2,5.12,clear sky
167,Kroya,ID,-7.6331,109.2461,90.19,65,83,7.05,broken clouds
168,Yanam,IN,16.7333,82.2167,81.0,75,98,9.75,overcast clouds
169,Resavica,RS,44.0408,21.5816,29.1,99,100,5.37,light snow
170,Sibu,MY,2.3,111.8167,84.51,79,40,5.01,scattered clouds
171,Ancud,CL,-41.8697,-73.8203,49.53,81,100,3.89,overcast clouds
172,Upernavik,GL,72.7868,-56.1549,6.94,93,100,11.45,overcast clouds
173,Trofors,NO,65.5333,13.4063,40.35,95,100,6.42,overcast clouds
174,Bengkulu,ID,-3.8004,102.2655,84.22,65,49,5.06,scattered clouds
175,Mitsamiouli,KM,-11.3847,43.2844,79.09,73,20,3.44,few clouds
176,Cavalcante,BR,-13.7975,-47.4583,69.75,94,100,0.27,heavy intensity rain
177,Ouesso,CG,1.6136,16.0517,71.29,95,96,2.48,overcast clouds
178,Banda Aceh,ID,5.5577,95.3222,84.2,65,71,11.5,broken clouds
179,Katsuura,JP,35.1333,140.3,59.11,42,39,13.06,scattered clouds
180,Hasaki,JP,35.7333,140.8333,55.29,31,54,16.33,broken clouds
181,Cap Malheureux,MU,-19.9842,57.6142,80.47,67,6,8.99,clear sky
182,Moerai,PF,-22.4333,-151.3333,79.23,73,56,4.47,broken clouds
183,Cabo San Lucas,MX,22.8909,-109.9124,73.15,76,58,4.34,broken clouds
184,Margate,GB,51.3813,1.3862,51.96,80,100,4.0,overcast clouds
185,Roald,NO,62.5833,6.1333,45.09,70,75,11.5,broken clouds
186,Shahreza,IR,32.0339,51.8794,38.98,40,17,0.92,few clouds
187,Minot,US,48.2325,-101.2963,35.82,69,20,10.36,few clouds
188,Vitoria Da Conquista,BR,-14.8661,-40.8394,61.72,94,94,3.85,overcast clouds
189,Asau,RO,46.4333,26.4,37.4,82,100,2.35,overcast clouds
190,Lompoc,US,34.6391,-120.4579,52.79,85,1,5.75,clear sky
191,Mayumba,GA,-3.432,10.6554,76.33,92,100,3.98,light rain
192,Kisangani,CD,0.5167,25.2,70.48,99,100,0.69,overcast clouds
193,Pisco,PE,-13.7,-76.2167,66.25,88,0,12.66,clear sky
194,Komsomolskiy,UZ,40.4272,71.7189,33.22,69,100,2.3,haze
195,Awjilah,LY,29.1081,21.2869,51.89,80,1,6.35,clear sky
196,Urumqi,CN,43.801,87.6005,9.55,79,77,2.24,broken clouds
197,Shenjiamen,CN,29.9576,122.298,50.09,56,10,14.72,clear sky
198,Husavik,IS,66.0449,-17.3389,37.31,78,95,16.75,overcast clouds
199,Lebanon,US,36.2081,-86.2911,41.79,80,1,0.0,clear sky
200,Thompson,CA,55.7435,-97.8558,3.36,85,75,0.0,light snow
201,Isla Mujeres,MX,21.2311,-86.731,78.17,75,6,10.11,clear sky
202,Santa Maria,BR,-29.6842,-53.8069,70.9,88,0,3.44,clear sky
203,Lasa,IT,46.6166,10.7002,40.08,95,63,7.65,broken clouds
204,San Patricio,US,28.017,-97.5169,64.26,78,3,4.92,clear sky
205,Westport,US,41.1415,-73.3579,44.1,58,0,5.01,clear sky
206,Harda,IN,22.3333,77.1,69.96,51,1,4.32,clear sky
207,Sena Madureira,BR,-9.0656,-68.6569,73.87,99,100,2.55,overcast clouds
208,Kurilsk,RU,45.2333,147.8833,33.3,63,99,32.21,light snow
209,Inhambane,MZ,-23.865,35.3833,80.58,94,75,5.99,broken clouds
210,Red Bank,US,40.3471,-74.0643,45.03,47,1,1.99,clear sky
211,Russell,US,32.3502,-85.1999,47.97,100,1,0.0,clear sky
212,Te Anau,NZ,-45.4167,167.7167,70.45,49,83,1.23,moderate rain
213,Brest,BY,52.1,23.7,28.36,93,100,4.88,overcast clouds
214,Cradock,ZA,-32.1642,25.6192,69.62,66,87,2.62,overcast clouds
215,Ishigaki,JP,24.3448,124.1572,68.13,77,75,24.16,broken clouds
216,Morondava,MG,-20.2833,44.2833,81.45,73,1,4.03,clear sky
217,Yinchuan,CN,38.4681,106.2731,29.48,32,0,1.81,clear sky
218,Kalach-Na-Donu,RU,48.691,43.5264,20.52,55,100,14.25,overcast clouds
219,Beloha,MG,-25.1667,45.05,81.7,40,9,10.65,clear sky
220,Olinda,BR,-8.0089,-34.8553,82.13,74,75,8.05,broken clouds
221,Mar Del Plata,AR,-38.0023,-57.5575,62.87,80,0,1.99,clear sky
222,Sitka,US,57.0531,-135.33,35.49,55,75,5.75,broken clouds
223,Del Rio,US,29.3627,-100.8968,52.43,35,1,1.99,clear sky
224,Lakhimpur,IN,27.95,80.7667,62.47,52,50,1.9,scattered clouds
225,Verkhovyna,UA,48.1557,24.7911,32.97,99,100,2.95,light snow
226,Kyren,RU,51.6828,102.1408,19.74,77,98,2.08,overcast clouds
227,Marzuq,YE,14.4,46.4667,55.18,56,0,3.49,clear sky
228,Loa Janan,ID,-0.583,117.095,84.88,67,94,3.42,overcast clouds
229,Henties Bay,NA,-22.116,14.2845,59.86,93,0,6.71,clear sky
230,Phangnga,TH,8.4509,98.5298,84.9,56,49,7.36,scattered clouds
231,San Cristobal,VE,7.7669,-72.225,69.98,92,84,3.15,broken clouds
232,Kahului,US,20.8947,-156.47,78.82,79,40,14.97,scattered clouds
233,Barrow,US,71.2906,-156.7887,-14.78,76,1,10.36,clear sky
234,Adrar,MR,20.5022,-10.0711,63.25,18,24,10.04,few clouds
235,Provideniya,RU,64.3833,-173.3,-8.64,70,59,15.66,broken clouds
236,Nemuro,JP,43.3236,145.575,36.03,57,37,31.94,scattered clouds
237,Zhaoqing,CN,23.0512,112.4597,68.94,45,0,5.12,clear sky
238,Chokurdakh,RU,70.6333,147.9167,-36.33,97,100,2.04,overcast clouds
239,Ayagoz,KZ,47.9714,80.4392,16.65,95,100,6.8,light snow
240,Bilma,NE,18.6853,12.9164,59.97,14,15,8.86,few clouds
241,Wasilla,US,61.5814,-149.4394,-1.39,77,1,5.75,clear sky
242,Vozhega,RU,60.4725,40.2213,23.32,96,100,6.8,overcast clouds
243,Ambulu,ID,-8.345,113.6058,85.77,67,68,7.14,broken clouds
244,Providencia,MX,28.7167,-111.5833,64.85,56,54,4.36,broken clouds
245,Vila Franca Do Campo,PT,37.7167,-25.4333,56.19,58,100,12.5,overcast clouds
246,Sorong,ID,-0.8833,131.25,84.22,74,100,4.9,overcast clouds
247,Klaksvik,FO,62.2266,-6.589,38.32,98,100,29.64,overcast clouds
248,Manzhouli,CN,49.6,117.4333,17.64,66,19,9.01,few clouds
249,Hayden,US,47.766,-116.7866,34.48,85,75,4.61,broken clouds
250,El Campo,US,29.1966,-96.2697,54.68,71,1,0.0,clear sky
251,Tondano,ID,1.3038,124.9112,78.89,62,76,4.7,broken clouds
252,Barcelona,ES,41.3888,2.159,52.54,82,20,11.5,few clouds
253,Oistins,BB,13.0667,-59.5333,78.89,89,40,18.41,scattered clouds
254,Pimenta Bueno,BR,-11.6725,-61.1936,74.44,98,100,3.47,overcast clouds
255,Guerrero Negro,MX,27.9769,-114.0611,60.51,70,94,8.57,overcast clouds
256,Lichuan,CN,30.3,108.85,43.79,73,28,3.69,scattered clouds
257,Storsteinnes,NO,69.2408,19.2344,33.8,96,98,3.58,light snow
258,Itanagar,IN,27.1,93.6167,65.03,40,0,4.03,clear sky
259,Acajutla,SV,13.5928,-89.8275,77.79,79,36,7.25,scattered clouds
260,Nikolskoye,RU,59.7035,30.7861,25.81,98,100,3.18,snow
261,Aleksandrovsk-Sakhalinskiy,RU,50.8975,142.1561,25.41,85,100,21.61,light snow
262,Kholm,RU,59.2667,32.85,31.32,96,100,7.45,overcast clouds
263,Severobaykalsk,RU,55.65,109.3167,10.44,71,41,8.32,scattered clouds
264,Sanchazi,CN,42.0817,126.6003,17.69,64,2,6.4,clear sky
265,Taoudenni,ML,22.6783,-3.9836,62.83,29,20,12.33,few clouds
266,Umbuzeiro,BR,-7.6956,-35.6636,73.08,92,51,3.94,broken clouds
267,Khora,GR,37.05,21.7167,48.13,76,71,14.7,broken clouds
268,Port Hedland,AU,-20.3167,118.5667,93.25,59,1,13.8,clear sky
269,Prabumulih,ID,-3.45,104.25,83.1,72,83,4.03,broken clouds
270,Koutiala,ML,12.3917,-5.4642,74.08,21,17,5.97,few clouds
271,Udachnyy,RU,66.4167,112.4,-47.56,71,96,3.85,overcast clouds
272,Preobrazheniye,RU,42.9019,133.9064,22.48,37,0,13.71,clear sky
273,Phaphund,IN,26.6,79.4667,62.89,43,52,3.15,broken clouds
274,Arica,CL,-18.475,-70.3042,66.43,72,90,3.44,overcast clouds
275,Iranshahr,IR,27.2025,60.6848,46.74,27,0,6.91,clear sky
276,Anloga,GH,5.7947,0.8973,82.62,83,74,9.04,broken clouds
277,Atherton,GB,53.5237,-2.4935,53.29,83,100,3.0,overcast clouds
278,Coquimbo,CL,-29.9533,-71.3436,58.73,88,0,3.44,clear sky
279,Isangel,VU,-19.55,169.2667,86.11,79,75,5.75,moderate rain
280,Hovd,MN,48.0056,91.6419,13.28,59,71,1.21,broken clouds
281,Guanica,PR,17.9716,-66.908,78.98,86,13,3.0,few clouds
282,Ouadda,CF,8.0777,22.4007,69.51,37,42,5.12,scattered clouds
283,Nata,PA,8.3333,-80.5167,73.24,85,52,6.02,broken clouds
284,Annau,TM,37.8876,58.516,38.7,100,90,9.22,mist
285,Alofi,NU,-19.0595,-169.9187,80.49,74,75,4.61,broken clouds
286,Varhaug,NO,58.6147,5.6457,46.89,86,100,21.97,overcast clouds
287,Amazar,RU,53.858,120.875,2.97,79,88,1.9,overcast clouds
288,Mecca,SA,21.4267,39.8261,69.58,38,72,4.03,broken clouds
289,Sambava,MG,-14.2667,50.1667,75.79,82,27,7.54,scattered clouds
290,Isla Vista,US,34.4133,-119.861,55.11,78,59,0.45,broken clouds
291,Tuatapere,NZ,-46.1333,167.6833,62.82,57,67,7.18,broken clouds
292,Male,MV,4.1748,73.5089,80.55,94,75,5.75,broken clouds
293,Bambous Virieux,MU,-20.3428,57.7575,81.21,78,75,6.91,broken clouds
294,Satun,TH,6.8333,100.0,85.71,58,71,7.65,broken clouds
295,Banjar,ID,-8.19,114.9675,87.66,72,65,0.74,broken clouds
296,Mahebourg,MU,-20.4081,57.7,81.25,78,75,6.91,broken clouds
297,Oranjemund,NA,-28.55,16.4333,60.15,95,9,4.54,clear sky
298,Vila Do Maio,CV,15.1333,-23.2167,74.19,74,100,15.23,overcast clouds
299,Port Macquarie,AU,-31.4333,152.9167,75.16,59,0,14.63,clear sky
300,Yaroslavskaya,RU,44.6106,40.4642,43.74,56,82,3.83,broken clouds
301,Pirayu,PY,-25.4833,-57.2333,78.48,84,96,6.13,light rain
302,Olafsvik,IS,64.8945,-23.7142,40.46,96,100,17.0,overcast clouds
303,Evensk,RU,61.95,159.2333,11.1,56,100,20.62,overcast clouds
304,Muncar,ID,-8.4333,114.3333,88.05,64,66,9.71,broken clouds
305,Riyadh,SA,24.6877,46.7219,46.54,31,58,5.14,broken clouds
306,Sarlat-La-Caneda,FR,44.889,1.2166,39.87,93,59,2.89,broken clouds
307,San Carlos De Bariloche,AR,-41.1456,-71.3082,44.35,76,75,17.27,broken clouds
308,Kutum,SD,14.2,24.6667,61.77,38,30,5.41,scattered clouds
309,Navahrudak,BY,53.6,25.8333,29.1,85,100,5.79,overcast clouds
310,Gorodovikovsk,RU,46.0878,41.9335,36.14,80,100,20.96,overcast clouds
311,Doka,SD,13.5167,35.7667,71.17,27,23,7.11,few clouds
312,Skjervoy,NO,70.0311,20.9714,36.46,99,100,10.0,light rain
313,Matay,EG,28.419,30.7792,61.27,64,100,7.87,overcast clouds
314,Oyama,JP,36.3,139.8,57.04,24,0,14.67,clear sky
315,Port-Gentil,GA,-0.7193,8.7815,79.32,87,100,8.93,overcast clouds
316,Sorochinsk,RU,52.4338,53.1583,9.95,91,10,1.66,clear sky
317,Shima,CN,24.4478,117.8111,67.21,58,81,6.33,broken clouds
318,Sao Joao Da Barra,BR,-21.6403,-41.0511,75.2,93,100,14.67,overcast clouds
319,Trairi,BR,-3.2778,-39.2689,81.23,75,95,11.34,overcast clouds
320,Naze,JP,28.3667,129.4833,59.92,66,94,15.99,overcast clouds
321,San Andres,CO,12.5847,-81.7006,80.62,83,40,11.5,scattered clouds
322,Kruisfontein,ZA,-34.0033,24.7314,66.88,98,100,5.06,overcast clouds
323,Gravdal,NO,68.1214,13.5031,34.92,89,82,11.9,broken clouds
324,Goma,CD,-1.6792,29.2228,62.11,81,100,3.22,overcast clouds
325,Manosque,FR,43.8288,5.7869,27.82,71,85,4.79,overcast clouds
326,Labuhan,ID,-6.8844,112.2051,87.69,62,23,6.2,few clouds
327,Gondar,ET,12.6,37.4667,54.14,28,28,5.53,scattered clouds
328,Saint-Denis,FR,48.9167,2.3333,49.59,96,90,1.01,fog
329,Kingisepp,RU,59.3733,28.6134,32.9,99,100,4.76,overcast clouds
330,Weiser,US,44.251,-116.9693,45.32,80,100,3.6,overcast clouds
331,Musiri,IN,10.9333,78.45,80.64,73,58,4.36,broken clouds
332,Kavieng,PG,-2.5744,150.7967,83.19,76,92,9.42,moderate rain
333,Pemangkat,ID,1.1667,108.9667,82.26,77,84,5.28,broken clouds
334,Juybar,IR,36.6412,52.9124,50.16,80,100,8.41,overcast clouds
335,Airai,TL,-8.9266,125.4092,74.12,64,87,0.96,overcast clouds
336,Potiskum,NG,11.7091,11.0694,65.46,24,46,8.32,scattered clouds
337,Weihe,CN,32.9952,105.3247,37.13,85,100,4.43,overcast clouds
338,Porto Walter,BR,-8.2686,-72.7439,73.29,97,91,2.17,overcast clouds
339,Aquidauana,BR,-20.4711,-55.7872,73.29,95,86,3.8,light rain
340,Kigorobya,UG,1.6162,31.3089,66.96,53,100,2.55,overcast clouds
341,Vilyuysk,RU,63.7553,121.6247,-19.7,97,100,7.31,overcast clouds
342,Sao Joao Dos Patos,BR,-6.495,-43.7022,76.84,68,100,1.34,overcast clouds
343,Alice Springs,AU,-23.7,133.8833,94.55,15,45,4.61,scattered clouds
344,Cap-Aux-Meules,CA,47.3821,-61.8597,37.42,56,75,29.93,broken clouds
345,Raga,SS,8.4596,25.678,71.15,34,91,4.38,overcast clouds
346,Manggar,ID,-2.8833,108.2667,83.91,72,100,11.32,overcast clouds
347,Skoczow,PL,49.8009,18.7877,28.51,93,23,3.36,few clouds
348,Hoquiam,US,46.9809,-123.8893,39.52,96,100,3.0,overcast clouds
349,Kashi,CN,39.4547,75.9797,22.21,58,40,6.71,scattered clouds
350,Nome,US,64.5011,-165.4064,-23.78,95,4,5.93,clear sky
351,Prieska,ZA,-29.6641,22.7474,70.36,67,4,7.72,clear sky
352,Lohardaga,IN,23.4333,84.6833,58.86,46,12,1.03,few clouds
353,Ejura,GH,7.3856,-1.3562,74.14,66,73,4.09,broken clouds
354,Redwater,US,33.3582,-94.2544,42.49,71,0,5.28,clear sky
355,Axim,GH,4.8699,-2.2405,78.46,86,56,4.27,broken clouds
356,Lincoln,US,40.8,-96.667,45.12,44,1,3.0,clear sky
357,Progreso,MX,21.2833,-89.6667,77.11,78,2,11.43,clear sky
358,Roswell,US,34.0232,-84.3616,43.39,82,1,1.01,clear sky
359,Tukrah,LY,32.5341,20.5791,58.3,67,9,9.19,clear sky
360,Geraldton,AU,-28.7667,114.6,79.21,44,0,13.8,clear sky
361,Yatou,CN,37.15,122.3833,38.48,41,15,7.76,few clouds
362,Eydhafushi,MV,5.1033,73.0708,80.67,80,99,15.68,overcast clouds
363,Ilihan,PH,13.6256,121.0753,82.27,74,90,14.36,overcast clouds
364,Altamira,BR,-3.2033,-52.2064,73.63,97,100,0.76,overcast clouds
365,Kerema,PG,-7.9631,145.7785,85.1,70,100,5.23,moderate rain
366,Luderitz,NA,-26.6481,15.1594,59.86,80,3,12.1,clear sky
367,Ahuimanu,US,21.4447,-157.8378,77.76,74,75,11.5,light rain
368,Tiarei,PF,-17.5333,-149.3333,82.42,72,16,10.33,few clouds
369,Ponta Delgada,PT,37.7333,-25.6667,57.51,76,20,9.22,few clouds
370,Skagen,DK,57.7209,10.5839,35.28,95,100,11.56,overcast clouds
371,Los Llanos De Aridane,ES,28.6585,-17.9182,62.35,81,90,5.99,overcast clouds
372,Lubango,AO,-14.9172,13.4925,62.02,87,100,1.63,light rain
373,Santa Rosalia,MX,27.3167,-112.2833,61.5,54,54,3.38,broken clouds
374,Yerbogachen,RU,61.2767,108.0108,-36.53,96,53,3.4,broken clouds
375,Marystown,CA,47.1666,-55.1483,38.86,100,100,15.01,overcast clouds
376,Kurchum,KZ,48.5722,83.6542,15.28,95,100,2.37,light snow
377,Ohangaron,UZ,40.9064,69.6383,41.14,84,100,5.28,overcast clouds
378,Mayor Pablo Lagerenza,PY,-19.9309,-60.7718,79.63,76,100,9.8,overcast clouds
379,Acarau,BR,-2.8856,-40.12,80.42,79,91,14.2,overcast clouds
380,Manaure,CO,11.7751,-72.4445,76.69,86,22,9.78,few clouds
381,Beboto,TD,8.2668,16.939,70.05,26,37,5.41,scattered clouds
382,Kandrian,PG,-6.2167,149.55,83.98,76,94,3.62,light rain
383,Beyla,GN,8.6833,-8.6333,66.04,42,3,0.89,clear sky
384,Westerland,DE,54.9079,8.3033,48.22,93,90,9.22,overcast clouds
385,Kodiak,US,57.79,-152.4072,11.05,79,15,19.8,few clouds
386,Salinas,US,36.6777,-121.6555,54.12,80,90,5.75,light rain
387,Antofagasta,CL,-23.65,-70.4,61.88,81,13,3.69,few clouds
388,Lowestoft,GB,52.4752,1.7516,51.94,92,100,16.98,overcast clouds
389,Baghmara,IN,23.795,86.2085,69.64,34,2,3.85,clear sky
390,Lingsugur,IN,16.1667,76.5167,74.68,67,100,13.35,overcast clouds
391,Rawlins,US,41.7911,-107.2387,35.82,52,2,14.79,clear sky
392,Letlhakeng,BW,-24.0944,25.0298,69.13,68,100,11.21,overcast clouds
393,Mesyagutovo,RU,55.5303,58.2528,6.42,91,99,4.21,overcast clouds
394,Vershino-Darasunskiy,RU,52.35,115.5167,13.5,77,100,5.88,overcast clouds
395,Saint-Leu,RE,-21.15,55.2833,80.67,70,6,6.91,clear sky
396,Jesus Del Monte,MX,19.1081,-99.9944,51.15,63,32,6.02,scattered clouds
397,Gamba,GA,-2.65,10.0,75.85,91,100,1.9,light rain
398,Las Palmas,ES,28.4204,-14.0131,59.79,94,0,6.91,clear sky
399,Yulara,AU,-25.2406,130.9889,87.64,29,42,11.5,scattered clouds
400,Ust-Nera,RU,64.5667,143.2,-36.09,100,99,1.48,overcast clouds
401,Fomboni,KM,-12.28,43.7425,81.36,74,80,11.92,broken clouds
402,Yining,CN,29.0361,114.5636,51.12,70,99,0.85,overcast clouds
403,Auki,SB,-8.7676,160.7034,82.87,86,88,12.3,overcast clouds
404,Ventspils,LV,57.3894,21.5606,30.13,100,90,5.75,fog
405,Nortelandia,BR,-14.4547,-56.8028,73.35,98,100,7.94,moderate rain
406,Tual,ID,-5.6667,132.75,83.1,76,98,11.21,overcast clouds
407,Capaci,IT,38.1711,13.2393,50.25,97,75,1.14,broken clouds
408,Chupa,RU,66.27,33.0549,21.25,97,99,4.14,overcast clouds
409,Sao Jose Da Coroa Grande,BR,-8.8978,-35.1478,77.63,83,23,7.85,few clouds
410,Talnakh,RU,69.4865,88.3972,-27.8,80,34,1.41,scattered clouds
411,Along,IN,28.1667,94.7667,68.09,40,24,0.96,few clouds
412,Ulladulla,AU,-35.35,150.4667,82.76,62,7,8.57,clear sky
413,Brownwood,US,31.7093,-98.9912,52.56,43,90,10.63,overcast clouds
414,Ndele,CF,8.4109,20.6473,72.52,34,13,4.68,few clouds
415,Qui Nhon,VN,13.7667,109.2333,75.02,87,98,21.94,overcast clouds
416,Sur,OM,22.5667,59.5289,73.89,57,22,8.55,few clouds
417,Bowen,AU,-20.0167,148.2333,88.02,58,18,22.19,few clouds
418,Berezivka,UA,47.2043,30.9078,43.05,89,100,7.72,overcast clouds
419,Serramanna,IT,39.4244,8.9244,38.7,80,0,2.73,clear sky
420,Abu Dhabi,AE,24.4667,54.3667,69.96,79,20,1.14,few clouds
421,Neuquen,AR,-38.9516,-68.0591,60.69,39,0,10.36,clear sky
422,Tabriz,IR,38.08,46.2919,27.86,86,0,4.61,clear sky
423,Voi,KE,-3.3945,38.563,70.63,89,64,1.32,light rain
424,Dunedin,NZ,-45.8742,170.5036,61.05,72,92,11.54,overcast clouds
425,Phek,IN,25.6667,94.5,57.67,52,13,1.19,few clouds
426,Gladstone,AU,-23.85,151.25,87.78,45,40,17.27,scattered clouds
427,Hare Bay,CA,48.8499,-54.0148,33.4,69,99,19.01,overcast clouds
428,Labuan,MY,5.2767,115.2417,86.16,88,20,1.99,few clouds
429,Walvis Bay,NA,-22.9575,14.5053,60.1,88,4,8.05,clear sky
430,Cherskiy,RU,68.75,161.3,-36.92,99,97,0.38,overcast clouds
431,Vila Velha,BR,-20.3297,-40.2925,78.75,85,75,5.99,broken clouds
432,Kieta,PG,-6.2167,155.6333,84.49,78,100,3.74,light rain
433,Warrnambool,AU,-38.3833,142.4833,67.8,77,94,20.04,overcast clouds
434,Hamilton,US,39.1834,-84.5333,39.24,69,20,5.75,few clouds
435,Lata,PT,40.1629,-8.3327,55.81,86,9,4.47,clear sky
436,Can,TR,40.0333,27.0524,55.27,91,99,4.59,overcast clouds
437,Carutapera,BR,-1.195,-46.02,79.27,84,43,7.16,scattered clouds
438,San Ramon,US,37.7799,-121.978,53.94,90,100,1.01,overcast clouds
439,Coahuayana,MX,18.7333,-103.6833,75.74,90,26,3.0,scattered clouds
440,Arcachon,FR,44.5875,-1.0519,44.92,100,90,8.05,overcast clouds
441,Svetlogorsk,BY,52.6333,29.7333,36.12,91,100,3.71,overcast clouds
442,Inirida,CO,3.8653,-67.9239,73.9,91,87,2.39,overcast clouds
443,Chigorodo,CO,7.6664,-76.6811,71.82,99,94,2.44,overcast clouds
444,Gwanda,ZW,-20.9333,29.0,72.97,56,98,6.38,overcast clouds
445,Dudinka,RU,69.4058,86.1778,-27.38,95,27,5.14,scattered clouds
446,Orativ,UA,49.1889,29.527,38.32,91,100,7.9,overcast clouds
447,Gazli,UZ,40.1333,63.45,41.54,65,93,6.85,overcast clouds
448,Noumea,NC,-22.2763,166.4572,76.98,95,100,2.15,moderate rain
449,Belaya Gora,RU,68.5333,146.4167,-47.54,100,99,1.23,overcast clouds
450,Dalmau,IN,26.0667,81.0333,64.26,41,7,3.38,clear sky
451,Sinop,TR,41.7711,34.8709,48.24,56,1,10.29,clear sky
452,Whitehorse,CA,60.7161,-135.0538,-4.7,76,90,5.99,light snow
453,Kovvur,IN,17.0167,81.7333,80.85,78,96,10.36,mist
454,Samarai,PG,-10.6167,150.6667,84.16,76,100,14.56,light rain
455,Ust-Kuyga,RU,70.0167,135.6,-33.0,100,100,2.59,overcast clouds
456,Mangaratiba,BR,-22.9597,-44.0406,72.46,90,100,5.08,overcast clouds
457,Orlik,RU,52.5178,99.825,6.53,89,71,1.88,broken clouds
458,Potsdam,DE,52.3989,13.0657,44.11,98,100,3.91,overcast clouds
459,Mandan,US,46.8267,-100.8896,35.37,77,1,8.05,clear sky
460,Capinzal,BR,-27.3436,-51.6119,69.03,75,100,2.33,overcast clouds
461,Salamiyah,SY,35.0113,37.0532,53.83,50,99,2.75,overcast clouds
462,Lagoa,PT,39.05,-27.9833,58.48,53,100,17.87,overcast clouds
463,Muzhi,RU,65.3667,64.6667,-5.57,99,49,3.06,scattered clouds
464,Sinnamary,GF,5.3833,-52.95,77.27,89,100,8.1,light rain
465,Goderich,CA,43.7501,-81.7165,43.12,61,74,24.16,broken clouds
466,Parry Sound,CA,45.3501,-80.033,46.31,57,75,19.6,broken clouds
467,Avera,US,33.194,-82.5271,46.06,39,0,6.46,clear sky
468,Mongo,TD,12.1844,18.693,71.74,17,48,6.29,scattered clouds
469,La Reforma,MX,25.0833,-108.05,66.74,85,43,4.99,scattered clouds
470,Almeirim,BR,-1.5233,-52.5817,74.98,90,100,3.2,overcast clouds
471,Sheregesh,RU,52.9209,87.9869,9.59,92,100,4.45,light snow
472,Zhangjiakou,CN,40.81,114.8794,24.08,25,0,2.06,clear sky
473,Baoying,CN,33.2292,119.3092,44.92,29,0,3.44,clear sky
474,Santa Cruz Del Sur,CU,20.7147,-77.9956,74.43,78,2,14.16,clear sky
475,Hammerfest,NO,70.6634,23.6821,34.25,100,75,2.3,broken clouds
476,Rutana,BI,-3.8667,30.1,57.33,95,100,1.66,light rain
477,Kununurra,AU,-15.7667,128.7333,103.98,29,94,6.91,overcast clouds
478,San Luis,AR,-33.295,-66.3356,61.81,84,1,16.26,clear sky
479,Berdigestyakh,RU,62.0989,126.6992,-10.5,97,100,4.29,overcast clouds
480,Aripuana,BR,-9.1667,-60.6333,73.72,97,100,2.1,overcast clouds
481,Tabasco,MX,18.0,-92.6667,74.07,100,90,8.05,drizzle
482,Porto Novo,BJ,6.4965,2.6036,82.22,89,54,4.9,broken clouds
483,Kumluca,TR,36.3703,30.2869,54.68,75,6,4.7,clear sky
484,The Valley,AI,18.217,-63.0578,81.1,75,54,23.17,broken clouds
485,Forest Park,US,39.2903,-84.5041,38.8,70,7,1.01,clear sky
486,Tolaga Bay,NZ,-38.3667,178.3,68.09,90,100,4.14,light rain
487,Ortona,IT,42.3496,14.4039,48.15,37,78,9.06,broken clouds
488,Chaumont,FR,48.1167,5.1333,41.29,93,100,2.51,overcast clouds
489,Soanierana Ivongo,MG,-16.9167,49.5833,78.82,85,69,3.2,light rain
490,Mlowo,TZ,-9.0,32.9833,60.04,83,65,1.83,broken clouds
491,Makakilo City,US,21.3469,-158.0858,76.57,69,75,5.75,broken clouds
492,Broome,US,42.2506,-75.833,38.66,61,0,4.0,clear sky
493,Karla,EE,59.3723,24.9275,31.57,87,90,6.91,fog
494,Longyearbyen,SJ,78.2186,15.6401,24.89,92,95,8.95,overcast clouds
495,Qaqortoq,GL,60.7167,-46.0333,16.3,78,99,8.23,overcast clouds
496,Nicoya,CR,10.1483,-85.452,76.55,84,55,4.63,broken clouds
497,San Quintin,MX,30.4833,-115.95,50.43,79,1,2.13,clear sky
498,Leshukonskoye,RU,64.8989,45.7622,12.49,95,91,6.71,light snow
499,Gambela,ET,8.25,34.5833,74.48,40,100,4.5,overcast clouds
500,Roma,US,43.2128,-75.4557,41.85,56,1,11.01,clear sky
501,Hervey Bay,AU,-25.2986,152.8535,84.31,65,34,16.84,scattered clouds
502,Boende,CD,-0.2167,20.8667,70.81,97,84,2.66,broken clouds
503,Conde,BR,-7.2597,-34.9075,76.46,94,75,4.61,broken clouds
504,Nizwa,OM,22.9333,57.5333,64.45,48,6,1.88,clear sky
505,Anupgarh,IN,29.1911,73.2086,62.19,20,58,4.94,broken clouds
506,Strezhevoy,RU,60.7333,77.5889,-0.42,99,85,3.49,overcast clouds
507,Seoul,KR,37.5683,126.9778,34.99,29,0,5.75,clear sky
508,Esmeraldas,BR,-19.7625,-44.3139,71.91,97,100,1.05,heavy intensity rain
509,Rundu,NA,-17.9333,19.7667,67.48,87,100,2.57,overcast clouds
510,Rio Grande,BR,-32.035,-52.0986,69.17,81,0,14.94,light rain
511,Bunumbu,SL,8.1667,-10.8667,71.26,94,6,0.76,clear sky
512,Norden,DE,53.6,7.2,50.92,97,100,13.8,overcast clouds
513,Machiques,VE,10.0644,-72.545,72.77,76,72,4.38,broken clouds
514,Suna,RU,57.8338,50.0588,2.55,93,87,6.15,overcast clouds
515,Paita,PE,-5.0892,-81.1144,66.85,85,33,7.99,scattered clouds
516,Barra Dos Coqueiros,BR,-10.9089,-37.0386,78.82,83,0,9.22,clear sky
517,Lorengau,PG,-2.0226,147.2712,85.3,75,100,13.06,overcast clouds
518,Motygino,RU,58.1831,94.7592,-5.21,98,100,1.57,overcast clouds
519,Kaeo,NZ,-35.1,173.7833,72.32,94,100,6.87,light rain
520,Beidao,CN,34.5686,105.8933,39.96,65,80,5.7,broken clouds
521,Erzin,TR,36.9559,36.2,54.12,50,100,7.52,overcast clouds
522,Mandalgovi,MN,45.7625,106.2708,16.95,35,0,18.1,clear sky
523,Verkhnevilyuysk,RU,63.4453,120.3167,-16.46,96,100,6.64,overcast clouds
524,Hasanabad,IR,36.5465,61.0543,47.75,80,100,7.81,overcast clouds
525,Puerto Baquerizo Moreno,EC,-0.9,-89.6,68.74,92,97,7.85,overcast clouds
526,Cabedelo,BR,-6.9811,-34.8339,77.67,79,68,10.78,broken clouds
527,Sechura,PE,-5.5569,-80.8222,68.59,77,25,8.55,scattered clouds
528,Samdari,IN,25.8167,72.5833,66.63,30,49,2.17,scattered clouds
529,Lagos,NG,6.5833,3.75,76.57,92,70,3.31,broken clouds
530,Muros,ES,42.7762,-9.0603,57.24,80,46,8.48,scattered clouds
531,Hofn,IS,64.2539,-15.2082,36.95,86,96,5.82,overcast clouds
532,Namibe,AO,-15.1961,12.1522,69.24,82,100,3.15,overcast clouds
533,Eyl,SO,7.9803,49.8164,75.72,71,3,21.45,clear sky
534,Suchiapa,MX,16.6167,-93.0833,75.52,64,40,12.66,scattered clouds
535,Gamboula,CF,4.1178,15.1393,68.25,47,62,3.71,broken clouds
536,Lixourion,GR,38.2019,20.4314,53.19,65,100,24.16,overcast clouds
537,Port Blair,IN,11.6667,92.75,84.24,65,20,10.36,few clouds
538,Batticaloa,LK,7.7102,81.6924,80.55,81,100,15.55,overcast clouds
539,Kualakapuas,ID,-3.0091,114.3876,84.36,85,92,2.53,overcast clouds
540,Lieksa,FI,63.3167,30.0167,23.18,97,100,2.73,light snow
541,Kayerkan,RU,69.3497,87.7602,-28.48,74,32,0.58,scattered clouds
542,Jadu,LY,31.953,12.0261,42.89,68,61,5.84,broken clouds
543,Vao,NC,-22.6667,167.4833,76.42,91,100,16.67,moderate rain
544,Ryotsu,JP,38.0833,138.4333,40.96,74,95,27.94,overcast clouds
545,Zalantun,CN,48.0,122.7167,15.78,58,39,2.24,scattered clouds
546,Meulaboh,ID,4.1363,96.1285,81.88,77,67,4.74,broken clouds
547,Gat,IL,31.61,34.7642,67.41,37,100,4.47,overcast clouds
548,Bondo,CD,3.8146,23.6866,70.39,77,100,2.04,overcast clouds
549,Harer,ET,9.3094,42.1258,60.51,61,95,2.73,overcast clouds
550,Presidencia Roque Saenz Pena,AR,-26.7852,-60.4388,76.14,65,96,6.85,light rain
551,Grindavik,IS,63.8424,-22.4338,41.47,87,75,16.11,broken clouds
552,Omsukchan,RU,62.5333,155.8,-6.43,98,100,8.57,overcast clouds
553,Mabaruma,GY,8.2,-59.7833,72.63,100,100,2.46,overcast clouds
554,Kavaratti,IN,10.5669,72.642,82.17,70,72,5.57,broken clouds
555,Montes Altos,BR,-5.8333,-47.0667,72.9,93,100,1.83,overcast clouds
556,Port Hueneme,US,34.1478,-119.1951,55.62,83,24,2.59,few clouds
557,Sundargarh,IN,22.1167,84.0333,70.34,47,16,4.97,few clouds
558,Teahupoo,PF,-17.8333,-149.2667,76.96,76,14,10.8,few clouds
559,Catamarca,AR,-28.4696,-65.7852,75.49,85,61,3.91,broken clouds
560,Yarmouth,US,41.7057,-70.2286,45.01,55,1,8.05,clear sky
561,Marrakesh,MA,31.6315,-8.0083,48.27,49,0,4.61,clear sky
562,Araouane,ML,18.9048,-3.5265,67.46,11,92,9.89,overcast clouds
563,Tautira,PF,-17.7333,-149.15,82.42,75,13,10.29,few clouds
564,Perpignan,FR,42.75,2.75,45.82,100,20,4.61,few clouds
565,Emerald,AU,-23.5333,148.1667,93.34,45,75,5.75,broken clouds
566,Karibib,NA,-21.9333,15.8333,70.21,22,1,2.37,clear sky
567,Waddan,LY,29.1614,16.139,46.29,62,3,5.23,clear sky
568,Onalaska,US,43.8844,-91.2351,41.32,74,80,8.41,broken clouds
569,Flinders,AU,-34.5833,150.8552,75.2,62,4,8.7,clear sky
570,Plaster Rock,CA,46.9065,-67.39,34.59,74,67,13.22,broken clouds
571,Half Moon Bay,US,37.4636,-122.4286,54.79,94,90,5.99,mist
572,Port Hawkesbury,CA,45.6169,-61.3485,38.7,57,1,8.01,clear sky
573,Vilcun,CL,-38.65,-72.2333,43.54,92,98,1.92,overcast clouds
574,Gilgit,PK,35.9221,74.3087,36.61,39,80,2.66,broken clouds
575,Andra,RU,62.5147,65.8878,-8.37,100,74,1.95,broken clouds
576,Natal,BR,-5.795,-35.2094,81.25,83,20,13.8,few clouds
577,Neath,GB,51.6632,-3.8044,52.47,94,100,4.0,overcast clouds
578,Chokwe,MZ,-24.5333,32.9833,80.67,63,98,4.72,overcast clouds
579,Quatre Cocos,MU,-20.2078,57.7625,81.09,69,13,11.7,few clouds
580,Gunjur,GM,13.2019,-16.7339,71.67,100,86,3.44,overcast clouds
581,Northam,GB,51.0333,-4.2167,54.01,96,100,11.01,overcast clouds
582,Tarui,JP,35.3667,136.5333,52.02,54,43,13.0,scattered clouds
583,Hami,CN,42.8,93.45,24.58,39,40,2.39,scattered clouds
584,Pafos,CY,34.7667,32.4167,58.23,54,0,4.61,clear sky
585,Saint-Prosper,CA,46.2117,-70.4811,36.32,71,82,14.97,broken clouds
586,Umm Lajj,SA,25.0213,37.2685,74.46,32,100,4.65,overcast clouds
587,Linhares,BR,-19.3911,-40.0722,73.15,95,100,2.48,overcast clouds
588,Moron,AR,-34.6534,-58.6198,76.75,92,96,4.18,light rain
589,Piacabucu,BR,-10.4056,-36.4344,77.68,80,30,9.51,scattered clouds
590,Bandarbeyla,SO,9.4942,50.8122,76.42,75,0,20.38,clear sky
591,Peleduy,RU,59.6289,112.7406,-11.34,93,100,4.45,overcast clouds
592,Pulaski,US,34.7668,-92.3001,43.02,72,0,5.99,clear sky
593,Piney Green,US,34.716,-77.3202,46.89,58,0,5.03,clear sky
594,Sulina,RO,45.1559,29.6536,48.88,94,97,5.06,overcast clouds
595,Egvekinot,RU,66.3167,-179.1667,-20.24,76,17,7.34,few clouds
596,Kamenka,RU,51.3223,42.7678,18.75,57,100,13.42,overcast clouds
597,Kawalu,ID,-7.3817,108.2082,85.96,60,98,4.63,overcast clouds
598,Kasempa,ZM,-13.4584,25.8338,67.21,56,97,1.01,overcast clouds
599,Gushikawa,JP,26.3544,127.8686,67.23,82,90,11.5,overcast clouds
600,Portland,US,45.5234,-122.6762,42.73,93,90,1.01,moderate rain
601,Gizo,SB,-8.103,156.8419,85.68,72,24,10.63,light rain
602,Pacifica,US,37.6138,-122.4869,54.61,93,90,7.0,light rain
603,Paamiut,GL,61.994,-49.6678,13.73,79,57,5.7,broken clouds
604,Humberto De Campos,BR,-2.5983,-43.4611,79.18,83,96,7.02,overcast clouds
605,Nouadhibou,MR,20.931,-17.0347,62.58,67,33,19.57,scattered clouds
606,Baykit,RU,61.67,96.37,-25.08,99,30,1.63,scattered clouds
607,Takahashi,JP,34.7833,133.6167,51.75,59,33,1.99,scattered clouds
608,Edson,CA,53.5835,-116.4356,8.74,100,1,0.0,clear sky
609,Bardiyah,LY,31.7561,25.0865,58.39,79,0,9.08,clear sky
610,Carauari,BR,-4.8828,-66.8958,74.23,99,98,2.44,overcast clouds
611,Karasburg,NA,-28.0167,18.75,60.08,40,100,16.02,overcast clouds
612,Ukiah,US,39.1502,-123.2078,52.43,97,100,3.33,overcast clouds
613,Fallon,US,39.4735,-118.7774,47.91,56,90,13.8,overcast clouds
614,Kloulklubed,PW,7.0419,134.2556,83.12,80,97,14.7,overcast clouds
615,Les Cayes,HT,18.2,-73.75,73.83,82,0,5.08,clear sky
616,Ambilobe,MG,-13.2,49.05,79.63,61,1,3.71,clear sky
617,Chapais,CA,49.7834,-74.8492,29.98,95,100,13.06,light snow
618,Mahibadhoo,MV,3.7833,72.9667,80.76,77,98,8.34,overcast clouds
619,Suntar,RU,62.1444,117.6319,-17.1,95,100,6.98,overcast clouds
620,Vangaindrano,MG,-23.35,47.6,77.34,70,6,2.66,clear sky
621,Makinsk,KZ,52.6292,70.4169,1.65,90,49,8.75,scattered clouds
622,Turukhansk,RU,65.8167,87.9833,-10.93,91,100,4.0,overcast clouds
623,Amapa,BR,1.0,-52.0,71.44,100,63,1.9,broken clouds
624,Tulagi,SB,-9.0996,160.1476,84.6,75,48,12.37,scattered clouds
625,Bukavu,CD,-2.5083,28.8608,60.06,90,94,1.16,overcast clouds
626,Yamada,JP,39.4667,141.95,36.21,53,14,24.27,few clouds
627,Whitianga,NZ,-36.8333,175.7,69.03,95,100,8.84,light rain
628,Bombay,IN,19.0144,72.8479,80.58,65,75,0.0,haze
629,Saint-Joseph,RE,-21.3667,55.6167,80.2,72,17,11.1,few clouds
630,Bata,GQ,1.8639,9.7658,78.78,87,93,4.83,light rain
631,Verkhoyansk,RU,67.5447,133.385,-45.81,100,95,2.59,overcast clouds
632,Wattegama,LK,6.7989,81.4808,77.92,93,100,5.41,overcast clouds
633,Yeppoon,AU,-23.1333,150.7333,87.58,58,10,16.08,clear sky
634,Pontianak,ID,-0.0333,109.3333,80.58,89,75,4.61,light rain
635,Birao,CF,10.2849,22.7882,68.05,35,70,6.35,broken clouds
636,Fukue,JP,32.6881,128.8419,48.56,57,75,10.36,broken clouds
637,Biak,ID,-0.9131,122.8766,85.03,68,60,2.66,broken clouds
638,Goure,NE,13.9835,10.2704,63.48,13,32,9.33,scattered clouds
639,Saravena,CO,6.9538,-71.8752,75.52,67,89,1.9,overcast clouds
640,Bolanos De Calatrava,ES,38.9069,-3.6635,38.73,69,35,4.16,scattered clouds
641,Kedgwick,CA,47.6446,-67.3434,29.73,83,100,13.27,overcast clouds
642,Jijiga,ET,9.35,42.8,57.45,66,89,6.13,overcast clouds
643,Saint-Augustin,CA,51.226,-58.6502,26.33,64,94,29.19,overcast clouds
644,Bijar,IR,35.8668,47.6051,31.71,37,57,2.3,broken clouds
645,Caravelas,BR,-17.7125,-39.2481,75.13,88,88,7.05,overcast clouds
646,Kastamonu,TR,41.5,33.6667,37.53,76,0,2.68,clear sky
647,Petropavlovka,RU,50.6114,105.3196,11.64,77,78,2.15,broken clouds
648,Buraydah,SA,26.326,43.975,46.85,33,100,4.07,overcast clouds
649,Pryyutivka,UA,48.7209,33.0708,38.41,71,100,9.17,overcast clouds
650,Rafaela,AR,-31.2503,-61.4867,66.06,88,100,3.0,light rain
651,Sasolburg,ZA,-26.8136,27.817,63.75,82,99,7.05,overcast clouds
652,Namatanai,PG,-3.6667,152.4333,86.25,67,96,6.6,light rain
653,Mashivka,UA,49.4431,34.8669,35.64,65,100,12.59,overcast clouds
654,Hurricane,US,37.1753,-113.2899,41.99,38,8,5.55,clear sky
655,Sibolga,ID,1.7427,98.7792,78.82,87,100,3.24,overcast clouds
656,Mildura,AU,-34.2,142.15,96.76,9,42,5.75,scattered clouds
657,Okato,NZ,-39.2,173.8833,72.43,89,99,7.63,light rain
658,Karsava,LV,56.7841,27.6883,27.45,97,80,6.78,broken clouds
659,Nohar,IN,29.1833,74.7667,60.82,34,73,6.42,broken clouds
660,Vytegra,RU,61.0064,36.4481,25.88,96,100,7.36,light snow
661,Gemona,IT,46.2794,13.1431,36.46,67,48,6.26,scattered clouds
662,Barranca,PE,-10.75,-77.7667,66.25,87,14,6.22,few clouds
663,Zemio,CF,5.0314,25.1361,69.42,45,97,1.1,overcast clouds
664,Baft,IR,29.234,56.6057,40.24,23,0,3.24,clear sky
665,Iquitos,PE,-3.7481,-73.2472,78.84,89,0,0.0,clear sky
666,Pimentel,PE,-6.8367,-79.9342,66.58,84,60,9.57,broken clouds
667,Alexandria,EG,31.2156,29.9553,61.34,82,40,3.44,scattered clouds
668,Albion,US,42.2431,-84.753,40.01,63,1,11.5,clear sky
669,Muisne,EC,0.6,-80.0333,73.47,94,100,5.1,overcast clouds
670,Kuybysheve,UA,47.358,36.6491,34.03,81,100,16.73,overcast clouds
671,Pacific Grove,US,36.6177,-121.9166,53.71,85,90,5.01,overcast clouds
672,Zaysan,KZ,47.4667,84.8667,15.13,91,100,2.26,overcast clouds
673,Mayo,US,38.8876,-76.5119,42.24,51,1,1.01,clear sky
674,Pelym,RU,61.0108,61.9978,6.94,95,100,2.71,overcast clouds
675,Havoysund,NO,70.9963,24.6622,34.68,84,100,12.08,overcast clouds
676,Kambia,SL,9.1167,-12.9167,76.28,92,21,2.39,few clouds
677,Dakar,SN,14.6937,-17.4441,73.53,78,0,2.3,clear sky
678,Nhulunbuy,AU,-12.2333,136.7667,95.61,38,40,4.61,scattered clouds
679,Takoradi,GH,4.8845,-1.7554,78.96,86,36,5.1,scattered clouds
680,Anadyr,RU,64.75,177.4833,-17.12,88,100,6.82,overcast clouds
681,Khipro,PK,25.8285,69.3772,66.87,19,76,5.12,broken clouds
682,Gandu,BR,-13.7439,-39.4867,68.81,100,99,0.45,overcast clouds
683,Hobyo,SO,5.3505,48.5268,79.16,75,19,20.8,few clouds
684,Marmande,FR,44.5,0.1667,44.51,99,96,5.46,overcast clouds
685,Sola,VU,-13.8833,167.55,82.6,78,99,15.7,moderate rain
686,Bodden Town,KY,19.2833,-81.25,80.6,87,0,1.01,clear sky
687,La Rioja,ES,42.25,-2.5,36.48,58,7,5.48,clear sky
688,Bull Savanna,JM,17.8868,-77.5902,72.81,84,1,5.73,clear sky
689,Yovon,TJ,38.3141,69.0378,33.48,26,100,1.77,overcast clouds
690,Malakal,SS,9.5334,31.6605,73.9,32,91,4.76,overcast clouds
691,Plettenberg Bay,ZA,-34.0527,23.3716,65.37,95,100,2.24,light rain
692,Huaraz,PE,-9.5333,-77.5333,50.72,82,89,3.24,overcast clouds
693,Lusambo,CD,-4.9667,23.45,71.11,98,100,1.23,overcast clouds
694,Juneau,US,58.3019,-134.4197,24.22,95,100,7.49,overcast clouds
695,Pontes E Lacerda,BR,-15.2261,-59.3353,72.68,98,100,2.64,overcast clouds
696,Jiazi,CN,22.8779,116.067,67.23,61,86,12.75,overcast clouds
697,Sabzevar,IR,36.2126,57.6819,31.28,64,0,6.91,clear sky
698,Andenes,NO,69.3143,16.1194,35.58,80,90,11.5,light rain
699,Kirakira,SB,-10.4544,161.9205,84.45,81,99,10.8,moderate rain
700,Santa Cruz De La Palma,ES,28.6835,-17.7642,66.34,68,90,5.75,overcast clouds
701,Amla,IN,21.9333,78.1167,68.27,48,46,3.89,scattered clouds
702,Pho Chai,TH,16.3283,103.7703,82.09,49,20,17.13,few clouds
703,Ust-Barguzin,RU,53.45,108.9833,23.36,67,100,13.24,overcast clouds
704,Khani,GE,41.9563,42.9566,42.37,41,63,7.92,broken clouds
705,Dickinson,US,29.4608,-95.0513,55.98,83,0,5.3,clear sky
706,San Antonio,US,29.4241,-98.4936,52.97,58,0,4.65,clear sky
707,Havelock,US,34.8791,-76.9013,46.94,78,0,5.01,clear sky
708,Katherine,AU,-14.4667,132.2667,100.72,32,7,8.05,clear sky
709,Kyra,RU,49.5776,111.9753,18.48,54,75,2.55,broken clouds
710,Bela,IN,25.9333,81.9833,65.28,43,2,1.21,clear sky
711,Mundra,IN,22.85,69.7333,73.8,39,0,9.69,clear sky
712,Beringovskiy,RU,63.05,179.3167,-4.31,98,100,10.96,light snow
713,Luanshya,ZM,-13.1367,28.4166,66.31,52,80,4.61,broken clouds
714,Bila Krynytsya,UA,50.6398,29.4704,34.03,94,100,6.24,light rain
715,Moissala,TD,8.3404,17.7663,71.58,31,31,3.38,scattered clouds
